{
    "type": "CitiesCollection",
    "cities": [
        {
            "text": "MAD",
            "size": 1.0,
            "country": "Spain",
            "name": "Madrid",
            "lat": "40.416729",
            "lng": "-3.703339"
        },
        {
            "text": "BCN",
            "size": 1.0,
            "country": "Spain",
            "name": "Barcelona",
            "lat": "41.390205",
            "lng": "2.154007"
        },
        {
            "text": "ROM",
            "size": 1.0,
            "country": "Italy",
            "name": "Rome",
            "lat": "41.902782",
            "lng": "12.496366"
        },
        {
            "text": "LON",
            "size": 1.0,
            "country": "United Kingdom",
            "name": "London",
            "lat": "51.509865",
            "lng": "-0.118092"
        },
        {
            "text": "NY",
            "size": 1.0,
            "country": "United States",
            "name": "New York",
            "lat": "40.730610",
            "lng": "-73.935242"
        },
        {
            "text": "MA",
            "size": 1.0,
            "country": "Morocco",
            "name": "Marrakesh",
            "lat": "31.628674",
            "lng": "-7.992047"
        },
        {
            "text": "SK",
            "size": 1.0,
            "country": "Slovakia",
            "name": "Bratislava",
            "lat": "48.148598",
            "lng": "17.107748"
        },
        {
            "text": "DB",
            "size": 1.0,
            "country": "United Arab Emirates",
            "name": "Dubai",
            "lat": "25.276987",
            "lng": "55.296249"
        }
    ]
}
